$GPGGA,000000.00,3653.68266277,N,01011.15633852,E,1,05,2.87,+0.00,M,00.000,M,,*4E
$GPGGA,000000.10,3653.68264406,N,01011.15626701,E,1,05,2.87,+0.00,M,00.000,M,,*40
$GPGGA,000000.20,3653.68261267,N,01011.15614699,E,1,05,2.87,+0.00,M,00.000,M,,*46
$GPGGA,000000.30,3653.68256535,N,01011.15596588,E,1,05,2.87,+0.00,M,00.000,M,,*49
$GPGGA,000000.40,3653.68249891,N,01011.15571111,E,1,05,2.87,+0.00,M,00.000,M,,*4E
$GPGGA,000000.50,3653.68241031,N,01011.15537007,E,1,05,2.87,+0.00,M,00.000,M,,*41
$GPGGA,000000.60,3653.68229799,N,01011.15493501,E,1,05,2.87,+0.00,M,00.000,M,,*45
$GPGGA,000000.70,3653.68216254,N,01011.15440539,E,1,05,2.87,+0.00,M,00.000,M,,*49
$GPGGA,000000.80,3653.68200638,N,01011.15378644,E,1,05,2.87,+0.00,M,00.000,M,,*4A
$GPGGA,000000.90,3653.68183384,N,01011.15308983,E,1,05,2.87,+0.00,M,00.000,M,,*42
$GPGGA,000001.00,3653.68164963,N,01011.15232761,E,1,05,2.87,+0.00,M,00.000,M,,*4A
$GPGGA,000001.10,3653.68145866,N,01011.15151176,E,1,05,2.87,+0.00,M,00.000,M,,*4A
$GPGGA,000001.20,3653.68126610,N,01011.15065427,E,1,05,2.87,+0.00,M,00.000,M,,*44
$GPGGA,000001.30,3653.68107734,N,01011.14976712,E,1,05,2.87,+0.00,M,00.000,M,,*4E
$GPGGA,000001.40,3653.68089793,N,01011.14886236,E,1,05,2.87,+0.00,M,00.000,M,,*4E
$GPGGA,000001.50,3653.68073328,N,01011.14795048,E,1,05,2.87,+0.00,M,00.000,M,,*48
$GPGGA,000001.60,3653.68058786,N,01011.14703491,E,1,05,2.87,+0.00,M,00.000,M,,*4D
$GPGGA,000001.70,3653.68046765,N,01011.14612503,E,1,05,2.87,+0.00,M,00.000,M,,*45
$GPGGA,000001.80,3653.68037914,N,01011.14523411,E,1,05,2.87,+0.00,M,00.000,M,,*47
$GPGGA,000001.90,3653.68032822,N,01011.14437635,E,1,05,2.87,+0.00,M,00.000,M,,*47
$GPGGA,000002.00,3653.68031935,N,01011.14356685,E,1,05,2.87,+0.00,M,00.000,M,,*42
$GPGGA,000002.10,3653.68035510,N,01011.14281079,E,1,05,2.87,+0.00,M,00.000,M,,*42
$GPGGA,000002.20,3653.68043882,N,01011.14210095,E,1,05,2.87,+0.00,M,00.000,M,,*4C
$GPGGA,000002.30,3653.68057634,N,01011.14143179,E,1,05,2.87,+0.00,M,00.000,M,,*4D
$GPGGA,000002.40,3653.68077589,N,01011.14080187,E,1,05,2.87,+0.00,M,00.000,M,,*42
$GPGGA,000002.50,3653.68104371,N,01011.14021281,E,1,05,2.87,+0.00,M,00.000,M,,*49
$GPGGA,000002.60,3653.68137415,N,01011.13965887,E,1,05,2.87,+0.00,M,00.000,M,,*4D
$GPGGA,000002.70,3653.68176251,N,01011.13913038,E,1,05,2.87,+0.00,M,00.000,M,,*42
$GPGGA,000002.80,3653.68220846,N,01011.13861765,E,1,05,2.87,+0.00,M,00.000,M,,*4A
$GPGGA,000002.90,3653.68271503,N,01011.13811193,E,1,05,2.87,+0.00,M,00.000,M,,*4B
$GPGGA,000003.00,3653.68328753,N,01011.13760570,E,1,05,2.87,+0.00,M,00.000,M,,*49
$GPGGA,000003.10,3653.68393031,N,01011.13709430,E,1,05,2.87,+0.00,M,00.000,M,,*41
$GPGGA,000003.20,3653.68463629,N,01011.13658194,E,1,05,2.87,+0.00,M,00.000,M,,*4B
$GPGGA,000003.30,3653.68539424,N,01011.13607367,E,1,05,2.87,+0.00,M,00.000,M,,*4F
$GPGGA,000003.40,3653.68619272,N,01011.13557304,E,1,05,2.87,+0.00,M,00.000,M,,*4F
$GPGGA,000003.50,3653.68702035,N,01011.13508278,E,1,05,2.87,+0.00,M,00.000,M,,*44
$GPGGA,000003.60,3653.68786588,N,01011.13460531,E,1,05,2.87,+0.00,M,00.000,M,,*4D
$GPGGA,000003.70,3653.68871932,N,01011.13414237,E,1,05,2.87,+0.00,M,00.000,M,,*44
$GPGGA,000003.80,3653.68957729,N,01011.13369257,E,1,05,2.87,+0.00,M,00.000,M,,*41
$GPGGA,000003.90,3653.69043897,N,01011.13325391,E,1,05,2.87,+0.00,M,00.000,M,,*44
$GPGGA,000004.00,3653.69130378,N,01011.13282490,E,1,05,2.87,+0.00,M,00.000,M,,*4F
$GPGGA,000004.10,3653.69217080,N,01011.13240478,E,1,05,2.87,+0.00,M,00.000,M,,*44
$GPGGA,000004.20,3653.69303344,N,01011.13199588,E,1,05,2.87,+0.00,M,00.000,M,,*41
$GPGGA,000004.30,3653.69388165,N,01011.13160238,E,1,05,2.87,+0.00,M,00.000,M,,*48
$GPGGA,000004.40,3653.69470533,N,01011.13122855,E,1,05,2.87,+0.00,M,00.000,M,,*4F
$GPGGA,000004.50,3653.69549443,N,01011.13087877,E,1,05,2.87,+0.00,M,00.000,M,,*4D
$GPGGA,000004.60,3653.69623890,N,01011.13055749,E,1,05,2.87,+0.00,M,00.000,M,,*4E
$GPGGA,000004.70,3653.69692869,N,01011.13026916,E,1,05,2.87,+0.00,M,00.000,M,,*43
$GPGGA,000004.80,3653.69755368,N,01011.13001811,E,1,05,2.87,+0.00,M,00.000,M,,*4F
$GPGGA,000004.90,3653.69810637,N,01011.12980728,E,1,05,2.87,+0.00,M,00.000,M,,*4B
$GPGGA,000005.00,3653.69858569,N,01011.12963689,E,1,05,2.87,+0.00,M,00.000,M,,*40
$GPGGA,000005.10,3653.69899135,N,01011.12950670,E,1,05,2.87,+0.00,M,00.000,M,,*47
$GPGGA,000005.20,3653.69932282,N,01011.12941618,E,1,05,2.87,+0.00,M,00.000,M,,*45
$GPGGA,000005.30,3653.69958092,N,01011.12936363,E,1,05,2.87,+0.00,M,00.000,M,,*42
$GPGGA,000005.40,3653.69977268,N,01011.12934427,E,1,05,2.87,+0.00,M,00.000,M,,*4A
$GPGGA,000005.50,3653.69990657,N,01011.12934552,E,1,05,2.87,+0.00,M,00.000,M,,*49
$GPGGA,000005.60,3653.69999227,N,01011.12935462,E,1,05,2.87,+0.00,M,00.000,M,,*43
$GPGGA,000005.70,3653.70004044,N,01011.12936368,E,1,05,2.87,+0.00,M,00.000,M,,*4E
$GPGGA,000005.80,3653.70006203,N,01011.12936914,E,1,05,2.87,+0.00,M,00.000,M,,*43
$GPGGA,000005.90,3653.70006781,N,01011.12937086,E,1,05,2.87,+0.00,M,00.000,M,,*4E
$GPGGA,000006.00,3653.70006781,N,01011.12937086,E,1,05,2.87,+0.00,M,00.000,M,,*44
